[
  {
    "id": 1,
    "title": "신발원",
    "local" : "부산",
    "imagePath":"https://search.pstatic.net/common/?src=https%3A%2F%2Fldb-phinf.pstatic.net%2F20221031_114%2F1667175233317eG8mM_JPEG%2FKakaoTalk_20221031_090406250_03.jpg",
    "likeCount": 176,
    "view": 11256,
    "commentCount": 56,
    "address" : "부산 동구 대영로 243번길 62",
    "telephone": "051-467-0177",
    "hours": "11:00 - 20:00 (정기 휴무: 매주 화요일)",
    "tv": "백종원의 3대 천왕 51회, 백종원의 3대 천왕 23회, 6시 내고향 5664회, 생생 정보통 617회",
    "blog": "https://blog.naver.com/shinfayuen1951-",
    "instagram": "https://www.instagram.com/official_shinfayuen",
    "youtube": "https://www.youtube.com/c/shinfayuentv"
  },
  {
    "id": 2,
    "title": "디이롱",
    "local" : "서울",
    "imagePath":"https://search.pstatic.net/common/?src=https%3A%2F%2Fldb-phinf.pstatic.net%2F20191008_28%2F1570535117912smOIs_JPEG%2F24FKEqthMpHaFRnGicYNFA5_.jpg",
    "likeCount": 246,
    "view": 14620,
    "commentCount": 350,
    "address" : "서울 마포구 동교로30길 17 1층",
    "telephone": "0507-1330-6995",
    "hours": "11:30 - 20:00 (정기 휴무: 매주 월요일)"
  },
  {
    "id": 3,
    "title": "탱탱만두",
    "local" : "군산",
    "imagePath":"https://search.pstatic.net/common/?src=http%3A%2F%2Fblogfiles.naver.net%2FMjAyMTA1MjFfMzkg%2FMDAxNjIxNjA2MjI0OTgy.eGy4lNZ1fRM34bxIVhVQXhReV6byEUlsJU5w1sKunpgg.ECknAl5_EH2Ic2nTDRWQ9TEapqGnTkeS5Ywc-CNOBEkg.JPEG.suhyunjoa2%2FEE8CBD45-F113-4DB4-B64A-8FF21531B8EA.jpg",
    "likeCount": 200,
    "view": 11000,
    "commentCount": 308,
    "address" : "전북 군산시 동리2길 1-1",
    "telephone": "063-471-0802",
    "hours": "09:00 - 20:00 (토: - 16:00) (정기 휴무: 매주 일요일)"
  },
  {
    "id": 4,
    "title": "동승루",
    "local" : "원주",
    "imagePath":"https://search.pstatic.net/common/?src=https%3A%2F%2Fldb-phinf.pstatic.net%2F20220821_190%2F1661093984164w26Bn_JPEG%2F%25B1%25BA%25B8%25B8%25B5%25CE.jpg",
    "likeCount": 198,
    "view": 13050,
    "commentCount": 331,
    "address" : "강원 원주시 이화4길 30 이화4길30",
    "telephone": "033-742-8166",
    "hours": "11:30 - 15:00 (정기 휴무: 매주 화요일)",
    "tv": "생활의달인 623회, 18.05.14.2018년 5월 14일 만두"
  }
]