[
  {
    "id": 5,
    "title": "더호쟈",
    "local" : "서울",
    "imagePath":"https://search.pstatic.net/common/?src=https%3A%2F%2Fldb-phinf.pstatic.net%2F20230212_235%2F1676176161173xK2BW_JPEG%2F%25B5%25F5%25BC%25B6.jpg",
    "likeCount": 10,
    "view": 205,
    "commentCount": 1,
    "address" : "서울 동대문구 장한로 37 1층 101호",
    "telephone": "0507-1316-7158",
    "hours": "11:00 - 22:00"
  },
  {
    "id": 6,
    "title": "딤딤섬",
    "local" : "대구",
    "imagePath":"https://search.pstatic.net/common/?src=https%3A%2F%2Fldb-phinf.pstatic.net%2F20190527_277%2F1558921191198ExxLn_JPEG%2F3IDqB6eWqC1ykYbh12pNbYOF.jpg",
    "likeCount": 5,
    "view": 312,
    "commentCount": 2,
    "address" : "대구 동구 동부로 149 대구신세계백화점 9층",
    "telephone": "0507-1310-6985",
    "hours": "11:00 - 21:30",
    "blog": "https://dimdimsum.modoo.at/",
    "instagram": "https://www.instagram.com/dimdimsumkr"
  },
  {
    "id": 7,
    "title": "광명만두",
    "local" : "천안",
    "imagePath":"https://search.pstatic.net/common/?src=http%3A%2F%2Fblogfiles.naver.net%2FMjAyMzA2MDNfMjQ5%2FMDAxNjg1NzU0NTI5MzMw.aYe0qFKUoXJg-r--rSpw0N3n6nn658jf8TbpOn3x6xIg.4rKHXOajAoVS6QyBwRtosxK7b5t5ne67KOH5xG4Cok0g.JPEG.hyunoq%2F20230602%25A3%25DF155845.jpg",
    "likeCount": 13,
    "view": 360,
    "commentCount": 5,
    "address" : "충남 천안시 서북구 두정중4길 1",
    "telephone": "041-552-2289",
    "hours": "10:30 - 21:00 (정기 휴무: 매주 일요일)"
  },
  {
    "id": 8,
    "title": "덕발장",
    "local" : "천안",
    "imagePath":"https://search.pstatic.net/common/?src=https%3A%2F%2Fldb-phinf.pstatic.net%2F20200726_119%2F1595769681422RjaB0_JPEG%2F_5uZ31vNyuUhiWxrZkKnoGlL.jpg",
    "likeCount": 8,
    "view": 253,
    "commentCount": 1,
    "address" : "경기 성남시 중원구 도촌로7번길 3-13 1층",
    "telephone": "0507-1390-3016",
    "hours": "11:00 - 21:00 (토, 일: - 15:00) (정기 휴무: 매주 일요일)",
    "instagram": "http://instagram.com/duckbaljang"
  }
]